[
  {
    "id": "hz001",
    "name": "西湖",
    "city": "杭州",
    "province": "浙江省",
    "category": ["自然风光", "文化"],
    "rating": 4.8,
    "visit_duration": 3,
    "ticket_price": 0,
    "opening_hours": "全天",
    "best_season": ["春季", "秋季"],
    "description": "杭州西湖是中国著名的风景名胜区，以其秀丽的湖光山色和众多的名胜古迹闻名于世。西湖十景、新西湖十景各具特色，春夏秋冬四季景色各异。",
    "location": {
      "lat": 30.2591,
      "lng": 120.1353,
      "address": "浙江省杭州市西湖区龙井路1号"
    },
    "tags": ["必游", "免费", "适合拍照", "世界遗产"],
    "tips": "建议清晨或傍晚游览，避开人流高峰。可以租自行车环湖骑行，约2-3小时。"
  },
  {
    "id": "hz002",
    "name": "灵隐寺",
    "city": "杭州",
    "province": "浙江省",
    "category": ["文化", "宗教"],
    "rating": 4.7,
    "visit_duration": 2.5,
    "ticket_price": 75,
    "opening_hours": "07:00-18:00",
    "best_season": ["春季", "秋季"],
    "description": "灵隐寺始建于东晋，是江南著名古刹之一。飞来峰石刻造像精美，寺内建筑恢宏，香火旺盛。",
    "location": {
      "lat": 30.2422,
      "lng": 120.0967,
      "address": "浙江省杭州市西湖区灵隐路"
    },
    "tags": ["必游", "历史悠久", "文化体验"],
    "tips": "周末和节假日人多，建议工作日前往。门票包含飞来峰和灵隐寺。"
  },
  {
    "id": "hz003",
    "name": "西溪湿地",
    "city": "杭州",
    "province": "浙江省",
    "category": ["自然风光"],
    "rating": 4.6,
    "visit_duration": 3,
    "ticket_price": 80,
    "opening_hours": "08:00-17:30",
    "best_season": ["春季", "秋季"],
    "description": "西溪湿地是城市中少见的天然湿地，被誉为'杭州之肾'。春季赏花，秋季观芦，风景优美。",
    "location": {
      "lat": 30.2694,
      "lng": 120.0544,
      "address": "浙江省杭州市西湖区天目山路518号"
    },
    "tags": ["生态", "摇橹船", "适合拍照"],
    "tips": "可乘坐摇橹船游览，约1小时。建议购买联票（门票+船票）。"
  }
]

